{
  "userLocations": {
    "1111111111": {
      "city": "Delhi",
      "state": "Delhi",
      "tier": "tier1",
      "coordinates": { "lat": 28.6139, "lng": 77.2090 },
      "profile": "No assets connected - Basic user"
    },
    "2222222222": {
      "city": "Mumbai",
      "state": "Maharashtra", 
      "tier": "tier1",
      "coordinates": { "lat": 19.0760, "lng": 72.8777 },
      "profile": "All assets connected - Large MF portfolio"
    },
    "3333333333": {
      "city": "Hyderabad",
      "state": "Telangana",
      "tier": "tier1", 
      "coordinates": { "lat": 17.3850, "lng": 78.4867 },
      "profile": "All assets connected - Small MF portfolio"
    },
    "4444444444": {
      "city": "Pune",
      "state": "Maharashtra",
      "tier": "tier1",
      "coordinates": { "lat": 18.5204, "lng": 73.8567 },
      "profile": "Multiple banks and UANs"
    },
    "5555555555": {
      "city": "Delhi",
      "state": "Delhi",
      "tier": "tier1",
      "coordinates": { "lat": 28.6139, "lng": 77.2090 },
      "profile": "All assets except credit score"
    },
    "6666666666": {
      "city": "Kolkata",
      "state": "West Bengal",
      "tier": "tier1",
      "coordinates": { "lat": 22.5726, "lng": 88.3639 },
      "profile": "All assets except bank account"
    },
    "7777777777": {
      "city": "Pune",
      "state": "Maharashtra",
      "tier": "tier1",
      "coordinates": { "lat": 18.5204, "lng": 73.8567 },
      "profile": "Debt-Heavy Low Performer"
    },
    "8888888888": {
      "city": "Bangalore",
      "state": "Karnataka",
      "tier": "tier1",
      "coordinates": { "lat": 12.9716, "lng": 77.5946 },
      "profile": "SIP Samurai - Consistent investor"
    },
    "9999999999": {
      "city": "Coimbatore",
      "state": "Tamil Nadu",
      "tier": "tier2",
      "coordinates": { "lat": 11.0168, "lng": 76.9558 },
      "profile": "Fixed Income Fanatic"
    },
    "1010101010": {
      "city": "Jaipur",
      "state": "Rajasthan",
      "tier": "tier2",
      "coordinates": { "lat": 26.9124, "lng": 75.7873 },
      "profile": "Precious Metal Believer"
    },
    "1212121212": {
      "city": "Lucknow",
      "state": "Uttar Pradesh",
      "tier": "tier2",
      "coordinates": { "lat": 26.8467, "lng": 80.9462 },
      "profile": "Dormant EPF Earner"
    },
    "1414141414": {
      "city": "Mumbai",
      "state": "Maharashtra",
      "tier": "tier1",
      "coordinates": { "lat": 19.0760, "lng": 72.8777 },
      "profile": "Salary Sinkhole - High EMI burden"
    },
    "1313131313": {
      "city": "Chennai",
      "state": "Tamil Nadu",
      "tier": "tier1",
      "coordinates": { "lat": 13.0827, "lng": 80.2707 },
      "profile": "Balanced Growth Tracker"
    },
    "2020202020": {
      "city": "Indore",
      "state": "Madhya Pradesh",
      "tier": "tier2",
      "coordinates": { "lat": 22.7196, "lng": 75.8577 },
      "profile": "Moderate spender"
    },
    "2121212121": {
      "city": "Bhopal",
      "state": "Madhya Pradesh",
      "tier": "tier2",
      "coordinates": { "lat": 23.2599, "lng": 77.4126 },
      "profile": "Conservative investor"
    },
    "2525252525": {
      "city": "Nagpur",
      "state": "Maharashtra",
      "tier": "tier2",
      "coordinates": { "lat": 21.1458, "lng": 79.0882 },
      "profile": "Balanced portfolio"
    }
  },
  "cityInflationMultipliers": {
    "Mumbai": {
      "food": 1.15,
      "housing": 1.8,
      "transport": 1.25,
      "healthcare": 1.3,
      "education": 1.4,
      "entertainment": 1.2,
      "clothing": 1.1,
      "miscellaneous": 1.15
    },
    "Delhi": {
      "food": 1.12,
      "housing": 1.7,
      "transport": 1.22,
      "healthcare": 1.25,
      "education": 1.35,
      "entertainment": 1.18,
      "clothing": 1.08,
      "miscellaneous": 1.12
    },
    "Bangalore": {
      "food": 1.08,
      "housing": 1.6,
      "transport": 1.18,
      "healthcare": 1.2,
      "education": 1.3,
      "entertainment": 1.15,
      "clothing": 1.05,
      "miscellaneous": 1.08
    },
    "Chennai": {
      "food": 1.05,
      "housing": 1.4,
      "transport": 1.15,
      "healthcare": 1.15,
      "education": 1.2,
      "entertainment": 1.1,
      "clothing": 1.02,
      "miscellaneous": 1.05
    },
    "Hyderabad": {
      "food": 1.04,
      "housing": 1.3,
      "transport": 1.12,
      "healthcare": 1.12,
      "education": 1.18,
      "entertainment": 1.08,
      "clothing": 1.02,
      "miscellaneous": 1.04
    },
    "Pune": {
      "food": 1.06,
      "housing": 1.5,
      "transport": 1.16,
      "healthcare": 1.18,
      "education": 1.25,
      "entertainment": 1.12,
      "clothing": 1.04,
      "miscellaneous": 1.06
    },
    "Kolkata": {
      "food": 1.02,
      "housing": 1.2,
      "transport": 1.08,
      "healthcare": 1.08,
      "education": 1.15,
      "entertainment": 1.05,
      "clothing": 1.0,
      "miscellaneous": 1.02
    },
    "Jaipur": {
      "food": 0.98,
      "housing": 0.8,
      "transport": 0.95,
      "healthcare": 0.9,
      "education": 0.85,
      "entertainment": 0.95,
      "clothing": 0.95,
      "miscellaneous": 0.92
    },
    "Coimbatore": {
      "food": 0.95,
      "housing": 0.7,
      "transport": 0.9,
      "healthcare": 0.85,
      "education": 0.8,
      "entertainment": 0.9,
      "clothing": 0.92,
      "miscellaneous": 0.88
    },
    "Lucknow": {
      "food": 0.96,
      "housing": 0.75,
      "transport": 0.92,
      "healthcare": 0.88,
      "education": 0.82,
      "entertainment": 0.92,
      "clothing": 0.94,
      "miscellaneous": 0.90
    },
    "Indore": {
      "food": 0.94,
      "housing": 0.72,
      "transport": 0.88,
      "healthcare": 0.85,
      "education": 0.8,
      "entertainment": 0.88,
      "clothing": 0.92,
      "miscellaneous": 0.88
    },
    "Bhopal": {
      "food": 0.93,
      "housing": 0.7,
      "transport": 0.87,
      "healthcare": 0.83,
      "education": 0.78,
      "entertainment": 0.87,
      "clothing": 0.9,
      "miscellaneous": 0.86
    },
    "Nagpur": {
      "food": 0.95,
      "housing": 0.74,
      "transport": 0.9,
      "healthcare": 0.86,
      "education": 0.81,
      "entertainment": 0.9,
      "clothing": 0.93,
      "miscellaneous": 0.89
    }
  }
}
